lat,lng,name
40.7128,-74.0060,New York
34.0522,-118.2437,Los Angeles
41.8781,-87.6298,Chicago
29.7604,-95.3698,Houston
33.4484,-112.0740,Phoenix
39.9526,-75.1652,Philadelphia
29.4241,-98.4936,San Antonio
32.7767,-96.7970,Dallas
37.7749,-122.4194,San Francisco
47.6062,-122.3321,Seattle
